{
"type": "FeatureCollection",
"name": "ev_charging_stations",
"features": [
{ "type": "Feature", "properties": { "station": "AC at Cedar Garden B&B (Underberg)", "longitude": 29.494331, "latitude": -29.791145 }, "geometry": { "type": "Point", "coordinates": [ 29.494331, -29.791145 ] } },
{ "type": "Feature", "properties": { "station": "AC at Celtis Country Lodge - AC 1 (Middelburg)", "longitude": 25.001652, "latitude": -31.497828 }, "geometry": { "type": "Point", "coordinates": [ 25.001652, -31.497828 ] } },
{ "type": "Feature", "properties": { "station": "AC at Clearwater Mall", "longitude": 27.90375, "latitude": -26.128178 }, "geometry": { "type": "Point", "coordinates": [ 27.90375, -26.128178 ] } },
{ "type": "Feature", "properties": { "station": "AC at Cornubia Mall (Mount Edgecomb)", "longitude": 31.054961, "latitude": -29.710103 }, "geometry": { "type": "Point", "coordinates": [ 31.054961, -29.710103 ] } },
{ "type": "Feature", "properties": { "station": "AC at Courtyard Hotel Rosebank", "longitude": 28.044224, "latitude": -26.144582 }, "geometry": { "type": "Point", "coordinates": [ 28.044224, -26.144582 ] } },
{ "type": "Feature", "properties": { "station": "AC at Eendracht Hotel (Stellenbosch)", "longitude": 18.862768, "latitude": -33.93866 }, "geometry": { "type": "Point", "coordinates": [ 18.862768, -33.93866 ] } },
{ "type": "Feature", "properties": { "station": "AC at Fancourt - Left", "longitude": 22.406982, "latitude": -33.952785 }, "geometry": { "type": "Point", "coordinates": [ 22.406982, -33.952785 ] } },
{ "type": "Feature", "properties": { "station": "AC at Forever Resort - AC 1 (Gariep)", "longitude": 25.502273, "latitude": -30.597448 }, "geometry": { "type": "Point", "coordinates": [ 25.502273, -30.597448 ] } },
{ "type": "Feature", "properties": { "station": "AC at Franschhoek Motor Museum", "longitude": 19.002407, "latitude": -33.878622 }, "geometry": { "type": "Point", "coordinates": [ 19.002407, -33.878622 ] } },
{ "type": "Feature", "properties": { "station": "AC at Hazyview Junction (Hazyview)", "longitude": 31.129296, "latitude": -25.042132 }, "geometry": { "type": "Point", "coordinates": [ 31.129296, -25.042132 ] } },
{ "type": "Feature", "properties": { "station": "AC at KOCOs Head Office", "longitude": 18.6831, "latitude": -33.8755 }, "geometry": { "type": "Point", "coordinates": [ 18.6831, -33.8755 ] } },
{ "type": "Feature", "properties": { "station": "AC at Monte Bello Estate", "longitude": 26.280605, "latitude": -29.036056 }, "geometry": { "type": "Point", "coordinates": [ 26.280605, -29.036056 ] } },
{ "type": "Feature", "properties": { "station": "AC at Morningside Shopping Centre (Sandton)", "longitude": 28.060516, "latitude": -26.082451 }, "geometry": { "type": "Point", "coordinates": [ 28.060516, -26.082451 ] } },
{ "type": "Feature", "properties": { "station": "AC at Parkview Shopping Centre (Garsfontein PTA)", "longitude": 28.303799, "latitude": -25.81792 }, "geometry": { "type": "Point", "coordinates": [ 28.303799, -25.81792 ] } },
{ "type": "Feature", "properties": { "station": "AC at Pezula Golf Course - Basement Parking", "longitude": 23.087631, "latitude": -34.071885 }, "geometry": { "type": "Point", "coordinates": [ 23.087631, -34.071885 ] } },
{ "type": "Feature", "properties": { "station": "AC at Sandton City - W1", "longitude": 28.052053, "latitude": -26.108314 }, "geometry": { "type": "Point", "coordinates": [ 28.052053, -26.108314 ] } },
{ "type": "Feature", "properties": { "station": "AC at Sandton City - W3", "longitude": 28.051862, "latitude": -26.108173 }, "geometry": { "type": "Point", "coordinates": [ 28.051862, -26.108173 ] } },
{ "type": "Feature", "properties": { "station": "AC at Serengeti Golf Club (Pty) Ltd", "longitude": 28.290239, "latitude": -26.043185 }, "geometry": { "type": "Point", "coordinates": [ 28.290239, -26.043185 ] } },
{ "type": "Feature", "properties": { "station": "AC at The Knysna Experience Thesen Island", "longitude": 23.047214, "latitude": -34.048828 }, "geometry": { "type": "Point", "coordinates": [ 23.047214, -34.048828 ] } },
{ "type": "Feature", "properties": { "station": "AC at The Marine Hotel (Hermanus)", "longitude": 19.244745, "latitude": -34.417721 }, "geometry": { "type": "Point", "coordinates": [ 19.244745, -34.417721 ] } },
{ "type": "Feature", "properties": { "station": "AC at the Orpen", "longitude": 31.371087, "latitude": -24.54619 }, "geometry": { "type": "Point", "coordinates": [ 31.371087, -24.54619 ] } },
{ "type": "Feature", "properties": { "station": "AC at UNIDO 2 (Somerset West)", "longitude": 18.847946, "latitude": -34.084336 }, "geometry": { "type": "Point", "coordinates": [ 18.847946, -34.084336 ] } },
{ "type": "Feature", "properties": { "station": "AC at Vrede en Lust Wine Estate", "longitude": 18.953261, "latitude": -33.837413 }, "geometry": { "type": "Point", "coordinates": [ 18.953261, -33.837413 ] } },
{ "type": "Feature", "properties": { "station": "AC at Whale Coast Solar", "longitude": 19.205682, "latitude": -34.417525 }, "geometry": { "type": "Point", "coordinates": [ 19.205682, -34.417525 ] } },
{ "type": "Feature", "properties": { "station": "Agrimark Paarl", "longitude": 18.975683, "latitude": -33.714733 }, "geometry": { "type": "Point", "coordinates": [ 18.975683, -33.714733 ] } },
{ "type": "Feature", "properties": { "station": "Agrimark Simondium", "longitude": 18.957363, "latitude": -33.84028 }, "geometry": { "type": "Point", "coordinates": [ 18.957363, -33.84028 ] } },
{ "type": "Feature", "properties": { "station": "Arniston Spa Hotel", "longitude": 20.231197, "latitude": -34.667377 }, "geometry": { "type": "Point", "coordinates": [ 20.231197, -34.667377 ] } },
{ "type": "Feature", "properties": { "station": "BMW Bryanston (JSN Motors)", "longitude": 28.023983, "latitude": -26.063214 }, "geometry": { "type": "Point", "coordinates": [ 28.023983, -26.063214 ] } },
{ "type": "Feature", "properties": { "station": "BMW Claremont CT (Auric Auto)", "longitude": 18.466458, "latitude": -33.983299 }, "geometry": { "type": "Point", "coordinates": [ 18.466458, -33.983299 ] } },
{ "type": "Feature", "properties": { "station": "BMW East Rand (Auto Alpina Boksburg)", "longitude": 28.251141, "latitude": -26.178244 }, "geometry": { "type": "Point", "coordinates": [ 28.251141, -26.178244 ] } },
{ "type": "Feature", "properties": { "station": "BMW Emalahleni (Eastview)", "longitude": 29.274983, "latitude": -25.887999 }, "geometry": { "type": "Point", "coordinates": [ 29.274983, -25.887999 ] } },
{ "type": "Feature", "properties": { "station": "BMW Joburg City (Joburg City Auto)", "longitude": 28.030491, "latitude": -26.199828 }, "geometry": { "type": "Point", "coordinates": [ 28.030491, -26.199828 ] } },
{ "type": "Feature", "properties": { "station": "BMW Kempton Park (Autobahn BMW)", "longitude": 28.201311, "latitude": -26.132178 }, "geometry": { "type": "Point", "coordinates": [ 28.201311, -26.132178 ] } },
{ "type": "Feature", "properties": { "station": "BMW Klerksdorp (Daly)", "longitude": 26.6684, "latitude": -26.869701 }, "geometry": { "type": "Point", "coordinates": [ 26.6684, -26.869701 ] } },
{ "type": "Feature", "properties": { "station": "BMW Midrand (Midrand Auto) AC", "longitude": 28.108778, "latitude": -26.011426 }, "geometry": { "type": "Point", "coordinates": [ 28.108778, -26.011426 ] } },
{ "type": "Feature", "properties": { "station": "BMW Namibia (Pupkewitz)", "longitude": 17.079212, "latitude": -22.577687 }, "geometry": { "type": "Point", "coordinates": [ 17.079212, -22.577687 ] } },
{ "type": "Feature", "properties": { "station": "BMW Nelson Mandela Bay", "longitude": 25.581888, "latitude": -33.949635 }, "geometry": { "type": "Point", "coordinates": [ 25.581888, -33.949635 ] } },
{ "type": "Feature", "properties": { "station": "BMW Northcliff (Northcliff Auto)", "longitude": 27.972221, "latitude": -26.127382 }, "geometry": { "type": "Point", "coordinates": [ 27.972221, -26.127382 ] } },
{ "type": "Feature", "properties": { "station": "BMW Pinetown (Supertech)", "longitude": 30.850662, "latitude": -29.812157 }, "geometry": { "type": "Point", "coordinates": [ 30.850662, -29.812157 ] } },
{ "type": "Feature", "properties": { "station": "BMW Umhlanga (SMG)", "longitude": 31.072532, "latitude": -29.727704 }, "geometry": { "type": "Point", "coordinates": [ 31.072532, -29.727704 ] } },
{ "type": "Feature", "properties": { "station": "Boardwalk Mall", "longitude": 25.6594, "latitude": -33.9844 }, "geometry": { "type": "Point", "coordinates": [ 25.6594, -33.9844 ] } },
{ "type": "Feature", "properties": { "station": "Brooklyn Mall", "longitude": 28.23294, "latitude": -25.77117 }, "geometry": { "type": "Point", "coordinates": [ 28.23294, -25.77117 ] } },
{ "type": "Feature", "properties": { "station": "Checkers Constantia Emporium", "longitude": 18.445156, "latitude": -34.02938 }, "geometry": { "type": "Point", "coordinates": [ 18.445156, -34.02938 ] } },
{ "type": "Feature", "properties": { "station": "Checkers Drakenstein", "longitude": 18.98493, "latitude": -33.764584 }, "geometry": { "type": "Point", "coordinates": [ 18.98493, -33.764584 ] } },
{ "type": "Feature", "properties": { "station": "Checkers FX Whale Coast Mall", "longitude": 19.206558, "latitude": -34.41452 }, "geometry": { "type": "Point", "coordinates": [ 19.206558, -34.41452 ] } },
{ "type": "Feature", "properties": { "station": "Checkers Hermanus Station Mall", "longitude": 19.242874, "latitude": -34.416534 }, "geometry": { "type": "Point", "coordinates": [ 19.242874, -34.416534 ] } },
{ "type": "Feature", "properties": { "station": "Checkers Hyper FX Brackenfell", "longitude": 18.68235, "latitude": -33.88375 }, "geometry": { "type": "Point", "coordinates": [ 18.68235, -33.88375 ] } },
{ "type": "Feature", "properties": { "station": "Checkers Sitari", "longitude": 18.77788, "latitude": -34.050514 }, "geometry": { "type": "Point", "coordinates": [ 18.77788, -34.050514 ] } },
{ "type": "Feature", "properties": { "station": "Checkers Sunvalley", "longitude": 18.38999, "latitude": -34.12113 }, "geometry": { "type": "Point", "coordinates": [ 18.38999, -34.12113 ] } },
{ "type": "Feature", "properties": { "station": "Checkers Welgelee Plein", "longitude": 19.00227, "latitude": -33.65056 }, "geometry": { "type": "Point", "coordinates": [ 19.00227, -33.65056 ] } },
{ "type": "Feature", "properties": { "station": "City of Tshwane Mayors Office", "longitude": 28.195534, "latitude": -25.836154 }, "geometry": { "type": "Point", "coordinates": [ 28.195534, -25.836154 ] } },
{ "type": "Feature", "properties": { "station": "CSIR Building 10", "longitude": 28.278334, "latitude": -25.743925 }, "geometry": { "type": "Point", "coordinates": [ 28.278334, -25.743925 ] } },
{ "type": "Feature", "properties": { "station": "CSIR Building 22 North", "longitude": 28.279522, "latitude": -25.747444 }, "geometry": { "type": "Point", "coordinates": [ 28.279522, -25.747444 ] } },
{ "type": "Feature", "properties": { "station": "CSIR Building 22 South Left", "longitude": 28.279401, "latitude": -25.748233 }, "geometry": { "type": "Point", "coordinates": [ 28.279401, -25.748233 ] } },
{ "type": "Feature", "properties": { "station": "CSIR Building 22 South Middle", "longitude": 28.279447, "latitude": -25.748206 }, "geometry": { "type": "Point", "coordinates": [ 28.279447, -25.748206 ] } },
{ "type": "Feature", "properties": { "station": "CSIR Building 22 South Right", "longitude": 28.279479, "latitude": -25.748192 }, "geometry": { "type": "Point", "coordinates": [ 28.279479, -25.748192 ] } },
{ "type": "Feature", "properties": { "station": "CSIR Building 23", "longitude": 28.280493, "latitude": -25.748228 }, "geometry": { "type": "Point", "coordinates": [ 28.280493, -25.748228 ] } },
{ "type": "Feature", "properties": { "station": "CSIR Building 34", "longitude": 28.279097, "latitude": -25.750587 }, "geometry": { "type": "Point", "coordinates": [ 28.279097, -25.750587 ] } },
{ "type": "Feature", "properties": { "station": "CSIR Building 39 ICC", "longitude": 28.277215, "latitude": -25.752541 }, "geometry": { "type": "Point", "coordinates": [ 28.277215, -25.752541 ] } },
{ "type": "Feature", "properties": { "station": "CSIR Building 43a", "longitude": 28.27831, "latitude": -25.755563 }, "geometry": { "type": "Point", "coordinates": [ 28.27831, -25.755563 ] } },
{ "type": "Feature", "properties": { "station": "CSIR Building 44", "longitude": 28.279722, "latitude": -25.757009 }, "geometry": { "type": "Point", "coordinates": [ 28.279722, -25.757009 ] } },
{ "type": "Feature", "properties": { "station": "DTI 1", "longitude": 28.200796, "latitude": -25.75007 }, "geometry": { "type": "Point", "coordinates": [ 28.200796, -25.75007 ] } },
{ "type": "Feature", "properties": { "station": "DTI 2", "longitude": 28.200802, "latitude": -25.750009 }, "geometry": { "type": "Point", "coordinates": [ 28.200802, -25.750009 ] } },
{ "type": "Feature", "properties": { "station": "Goose Valley Golf Club", "longitude": 23.38085, "latitude": -34.026245 }, "geometry": { "type": "Point", "coordinates": [ 23.38085, -34.026245 ] } },
{ "type": "Feature", "properties": { "station": "Hazendal Boutique Hotel & Spa", "longitude": 18.72059, "latitude": -33.899204 }, "geometry": { "type": "Point", "coordinates": [ 18.72059, -33.899204 ] } },
{ "type": "Feature", "properties": { "station": "Houw Hoek Hotel", "longitude": 19.15131, "latitude": -34.205643 }, "geometry": { "type": "Point", "coordinates": [ 19.15131, -34.205643 ] } },
{ "type": "Feature", "properties": { "station": "Humewood Golf Club", "longitude": 25.677935, "latitude": -34.000633 }, "geometry": { "type": "Point", "coordinates": [ 25.677935, -34.000633 ] } },
{ "type": "Feature", "properties": { "station": "IDC-1", "longitude": 28.052108, "latitude": -26.100494 }, "geometry": { "type": "Point", "coordinates": [ 28.052108, -26.100494 ] } },
{ "type": "Feature", "properties": { "station": "IDC-2", "longitude": 28.052056, "latitude": -26.100519 }, "geometry": { "type": "Point", "coordinates": [ 28.052056, -26.100519 ] } },
{ "type": "Feature", "properties": { "station": "IDC-3", "longitude": 28.052003, "latitude": -26.100545 }, "geometry": { "type": "Point", "coordinates": [ 28.052003, -26.100545 ] } },
{ "type": "Feature", "properties": { "station": "IDC-4", "longitude": 28.051951, "latitude": -26.10057 }, "geometry": { "type": "Point", "coordinates": [ 28.051951, -26.10057 ] } },
{ "type": "Feature", "properties": { "station": "JLR Bedfordview - Public AC", "longitude": 28.134264, "latitude": -26.179913 }, "geometry": { "type": "Point", "coordinates": [ 28.134264, -26.179913 ] } },
{ "type": "Feature", "properties": { "station": "JLR Bloemfontein - Public AC", "longitude": 26.221863, "latitude": -29.112915 }, "geometry": { "type": "Point", "coordinates": [ 26.221863, -29.112915 ] } },
{ "type": "Feature", "properties": { "station": "JLR East London - Public AC", "longitude": 27.914325, "latitude": -33.007413 }, "geometry": { "type": "Point", "coordinates": [ 27.914325, -33.007413 ] } },
{ "type": "Feature", "properties": { "station": "JLR East Rand - Public AC", "longitude": 28.244088, "latitude": -26.181616 }, "geometry": { "type": "Point", "coordinates": [ 28.244088, -26.181616 ] } },
{ "type": "Feature", "properties": { "station": "JLR Eastern Cape - Public AC", "longitude": 25.554537, "latitude": -33.968556 }, "geometry": { "type": "Point", "coordinates": [ 25.554537, -33.968556 ] } },
{ "type": "Feature", "properties": { "station": "JLR Experience Centre - Public AC - P1", "longitude": 28.038226, "latitude": -26.012757 }, "geometry": { "type": "Point", "coordinates": [ 28.038226, -26.012757 ] } },
{ "type": "Feature", "properties": { "station": "JLR Experience Centre - Public AC - P2", "longitude": 28.038225, "latitude": -26.012782 }, "geometry": { "type": "Point", "coordinates": [ 28.038225, -26.012782 ] } },
{ "type": "Feature", "properties": { "station": "JLR Experience Centre - Public AC - P3", "longitude": 28.038224, "latitude": -26.012809 }, "geometry": { "type": "Point", "coordinates": [ 28.038224, -26.012809 ] } },
{ "type": "Feature", "properties": { "station": "JLR Experience Centre - Public AC - P4", "longitude": 28.038226, "latitude": -26.012838 }, "geometry": { "type": "Point", "coordinates": [ 28.038226, -26.012838 ] } },
{ "type": "Feature", "properties": { "station": "JLR George - Public AC", "longitude": 22.49721, "latitude": -33.98121 }, "geometry": { "type": "Point", "coordinates": [ 22.49721, -33.98121 ] } },
{ "type": "Feature", "properties": { "station": "JLR Hillcrest - Public AC", "longitude": 30.781496, "latitude": -29.791729 }, "geometry": { "type": "Point", "coordinates": [ 30.781496, -29.791729 ] } },
{ "type": "Feature", "properties": { "station": "JLR Nelspruit - Public AC", "longitude": 30.962689, "latitude": -25.449256 }, "geometry": { "type": "Point", "coordinates": [ 30.962689, -25.449256 ] } },
{ "type": "Feature", "properties": { "station": "JLR Umhlanga - Public AC", "longitude": 31.06354, "latitude": -29.729491 }, "geometry": { "type": "Point", "coordinates": [ 31.06354, -29.729491 ] } },
{ "type": "Feature", "properties": { "station": "La Lucia Mall", "longitude": 31.0645, "latitude": -29.7538 }, "geometry": { "type": "Point", "coordinates": [ 31.0645, -29.7538 ] } },
{ "type": "Feature", "properties": { "station": "Mantis No5 Boutique Art Hotel", "longitude": 25.6623, "latitude": -33.9843 }, "geometry": { "type": "Point", "coordinates": [ 25.6623, -33.9843 ] } },
{ "type": "Feature", "properties": { "station": "Mantis Vivari Hotel", "longitude": 27.838911, "latitude": -26.069231 }, "geometry": { "type": "Point", "coordinates": [ 27.838911, -26.069231 ] } },
{ "type": "Feature", "properties": { "station": "Menlyn Park P1", "longitude": 28.277348, "latitude": -25.782002 }, "geometry": { "type": "Point", "coordinates": [ 28.277348, -25.782002 ] } },
{ "type": "Feature", "properties": { "station": "Menlyn Park P3", "longitude": 28.275751, "latitude": -25.78464 }, "geometry": { "type": "Point", "coordinates": [ 28.275751, -25.78464 ] } },
{ "type": "Feature", "properties": { "station": "Menlyn Park P6", "longitude": 28.275735, "latitude": -25.784793 }, "geometry": { "type": "Point", "coordinates": [ 28.275735, -25.784793 ] } },
{ "type": "Feature", "properties": { "station": "Menlyn Park VIP", "longitude": 28.273706, "latitude": -25.781656 }, "geometry": { "type": "Point", "coordinates": [ 28.273706, -25.781656 ] } },
{ "type": "Feature", "properties": { "station": "Port Elizabeth Golf Club", "longitude": 25.588552, "latitude": -33.957638 }, "geometry": { "type": "Point", "coordinates": [ 25.588552, -33.957638 ] } },
{ "type": "Feature", "properties": { "station": "Pretoria Central Police Station", "longitude": 28.184774, "latitude": -25.748446 }, "geometry": { "type": "Point", "coordinates": [ 28.184774, -25.748446 ] } },
{ "type": "Feature", "properties": { "station": "Profcon Resort Graaf-Reinett", "longitude": 24.531097, "latitude": -32.252188 }, "geometry": { "type": "Point", "coordinates": [ 24.531097, -32.252188 ] } },
{ "type": "Feature", "properties": { "station": "Royal St. Andrews Hotel", "longitude": 26.891699, "latitude": -33.600395 }, "geometry": { "type": "Point", "coordinates": [ 26.891699, -33.600395 ] } },
{ "type": "Feature", "properties": { "station": "Simola Golf & Country Estate", "longitude": 23.0359, "latitude": -34.0037 }, "geometry": { "type": "Point", "coordinates": [ 23.0359, -34.0037 ] } },
{ "type": "Feature", "properties": { "station": "Skydive Cape Town BREEV000X02", "longitude": 18.47046375, "latitude": -33.64681415 }, "geometry": { "type": "Point", "coordinates": [ 18.47046375, -33.64681415 ] } },
{ "type": "Feature", "properties": { "station": "St Francis Links", "longitude": 24.815, "latitude": -34.162 }, "geometry": { "type": "Point", "coordinates": [ 24.815, -34.162 ] } },
{ "type": "Feature", "properties": { "station": "STD Bank Global leadership Center 1", "longitude": 28.060933, "latitude": -26.075345 }, "geometry": { "type": "Point", "coordinates": [ 28.060933, -26.075345 ] } },
{ "type": "Feature", "properties": { "station": "STD Bank Global leadership Center 2", "longitude": 28.061281, "latitude": -26.075528 }, "geometry": { "type": "Point", "coordinates": [ 28.061281, -26.075528 ] } },
{ "type": "Feature", "properties": { "station": "STD Bank Rosebank 1", "longitude": 28.043919, "latitude": -26.14762 }, "geometry": { "type": "Point", "coordinates": [ 28.043919, -26.14762 ] } },
{ "type": "Feature", "properties": { "station": "STD Bank Rosebank 2", "longitude": 28.043842, "latitude": -26.14762 }, "geometry": { "type": "Point", "coordinates": [ 28.043842, -26.14762 ] } },
{ "type": "Feature", "properties": { "station": "Stellenbosch Golf Club", "longitude": 18.8504, "latitude": -33.9588 }, "geometry": { "type": "Point", "coordinates": [ 18.8504, -33.9588 ] } },
{ "type": "Feature", "properties": { "station": "The Capital 15 On Orange Hotel", "longitude": 18.413834, "latitude": -33.928364 }, "geometry": { "type": "Point", "coordinates": [ 18.413834, -33.928364 ] } },
{ "type": "Feature", "properties": { "station": "The Capital Empire", "longitude": 28.0513, "latitude": -26.1124 }, "geometry": { "type": "Point", "coordinates": [ 28.0513, -26.1124 ] } },
{ "type": "Feature", "properties": { "station": "The Capital Mbombela", "longitude": 30.956593, "latitude": -25.467722 }, "geometry": { "type": "Point", "coordinates": [ 30.956593, -25.467722 ] } },
{ "type": "Feature", "properties": { "station": "The Capital Melrose", "longitude": 28.06595, "latitude": -26.13308 }, "geometry": { "type": "Point", "coordinates": [ 28.06595, -26.13308 ] } },
{ "type": "Feature", "properties": { "station": "The Capital Menlyn Maine", "longitude": 28.2819, "latitude": -25.7865 }, "geometry": { "type": "Point", "coordinates": [ 28.2819, -25.7865 ] } },
{ "type": "Feature", "properties": { "station": "The Capital On The Park", "longitude": 28.062931, "latitude": -26.106915 }, "geometry": { "type": "Point", "coordinates": [ 28.062931, -26.106915 ] } },
{ "type": "Feature", "properties": { "station": "The Capital Zimbali", "longitude": 31.1908, "latitude": -29.5638 }, "geometry": { "type": "Point", "coordinates": [ 31.1908, -29.5638 ] } },
{ "type": "Feature", "properties": { "station": "Audi Bryanston", "longitude": 28.020071, "latitude": -26.048046 }, "geometry": { "type": "Point", "coordinates": [ 28.020071, -26.048046 ] } },
{ "type": "Feature", "properties": { "station": "Audi Centre East Rand", "longitude": 28.241951, "latitude": -26.176743 }, "geometry": { "type": "Point", "coordinates": [ 28.241951, -26.176743 ] } },
{ "type": "Feature", "properties": { "station": "Audi Centurion", "longitude": 28.190153, "latitude": -25.858646 }, "geometry": { "type": "Point", "coordinates": [ 28.190153, -25.858646 ] } },
{ "type": "Feature", "properties": { "station": "Audi Century City", "longitude": 18.511642, "latitude": -33.89668 }, "geometry": { "type": "Point", "coordinates": [ 18.511642, -33.89668 ] } },
{ "type": "Feature", "properties": { "station": "Audi Claremont", "longitude": 18.475622, "latitude": -33.98363 }, "geometry": { "type": "Point", "coordinates": [ 18.475622, -33.98363 ] } },
{ "type": "Feature", "properties": { "station": "Audi Durban", "longitude": 31.0309, "latitude": -29.8523 }, "geometry": { "type": "Point", "coordinates": [ 31.0309, -29.8523 ] } },
{ "type": "Feature", "properties": { "station": "Audi Hatfield", "longitude": 28.238485, "latitude": -25.744804 }, "geometry": { "type": "Point", "coordinates": [ 28.238485, -25.744804 ] } },
{ "type": "Feature", "properties": { "station": "Audi Menlyn", "longitude": 28.280733, "latitude": -25.792608 }, "geometry": { "type": "Point", "coordinates": [ 28.280733, -25.792608 ] } },
{ "type": "Feature", "properties": { "station": "Audi Rivonia", "longitude": 28.0622, "latitude": -26.029306 }, "geometry": { "type": "Point", "coordinates": [ 28.0622, -26.029306 ] } },
{ "type": "Feature", "properties": { "station": "Audi Sandton", "longitude": 28.071638, "latitude": -26.10281 }, "geometry": { "type": "Point", "coordinates": [ 28.071638, -26.10281 ] } },
{ "type": "Feature", "properties": { "station": "Caltex N4 Machadodorp", "longitude": 30.21258, "latitude": -25.68863 }, "geometry": { "type": "Point", "coordinates": [ 30.21258, -25.68863 ] } },
{ "type": "Feature", "properties": { "station": "Canal Walk Shopping Centre", "longitude": 18.512308, "latitude": -33.892002 }, "geometry": { "type": "Point", "coordinates": [ 18.512308, -33.892002 ] } },
{ "type": "Feature", "properties": { "station": "Castle Gate Shopping Centre", "longitude": 28.2445, "latitude": -25.8184 }, "geometry": { "type": "Point", "coordinates": [ 28.2445, -25.8184 ] } },
{ "type": "Feature", "properties": { "station": "CMH Volvo Cars Cape Town", "longitude": 18.431356, "latitude": -33.9228 }, "geometry": { "type": "Point", "coordinates": [ 18.431356, -33.9228 ] } },
{ "type": "Feature", "properties": { "station": "CMH Volvo Cars Fourways", "longitude": 28.003057, "latitude": -26.018856 }, "geometry": { "type": "Point", "coordinates": [ 28.003057, -26.018856 ] } },
{ "type": "Feature", "properties": { "station": "CMH Volvo Cars Silver Lakes", "longitude": 28.348986, "latitude": -25.776413 }, "geometry": { "type": "Point", "coordinates": [ 28.348986, -25.776413 ] } },
{ "type": "Feature", "properties": { "station": "CMH Volvo Cars Umhlanga", "longitude": 31.06303, "latitude": -29.730421 }, "geometry": { "type": "Point", "coordinates": [ 31.06303, -29.730421 ] } },
{ "type": "Feature", "properties": { "station": "Dan's Country Lodge", "longitude": 28.860508, "latitude": -31.430347 }, "geometry": { "type": "Point", "coordinates": [ 28.860508, -31.430347 ] } },
{ "type": "Feature", "properties": { "station": "DC at Drostdy Hotel (Graaff-Reinett)", "longitude": 24.534685, "latitude": -32.253106 }, "geometry": { "type": "Point", "coordinates": [ 24.534685, -32.253106 ] } },
{ "type": "Feature", "properties": { "station": "DC at Engen 1-Stop (Colesberg)", "longitude": 25.08387, "latitude": -30.726562 }, "geometry": { "type": "Point", "coordinates": [ 25.08387, -30.726562 ] } },
{ "type": "Feature", "properties": { "station": "DC at Engen Tugela 1-Stop South (Ladysmith)", "longitude": 29.575958, "latitude": -28.489179 }, "geometry": { "type": "Point", "coordinates": [ 29.575958, -28.489179 ] } },
{ "type": "Feature", "properties": { "station": "DC at Riverside Mall (Mbombela)", "longitude": 30.966686, "latitude": -25.437419 }, "geometry": { "type": "Point", "coordinates": [ 30.966686, -25.437419 ] } },
{ "type": "Feature", "properties": { "station": "DC at Tile Crazy (Brakpan)", "longitude": 28.320589, "latitude": -26.242916 }, "geometry": { "type": "Point", "coordinates": [ 28.320589, -26.242916 ] } },
{ "type": "Feature", "properties": { "station": "DC at Vincent Park Mall (East London)", "longitude": 27.903539, "latitude": -32.983217 }, "geometry": { "type": "Point", "coordinates": [ 27.903539, -32.983217 ] } },
{ "type": "Feature", "properties": { "station": "Design Quarter", "longitude": 28.012278, "latitude": -26.030651 }, "geometry": { "type": "Point", "coordinates": [ 28.012278, -26.030651 ] } },
{ "type": "Feature", "properties": { "station": "Diaz Hotel & Resort", "longitude": 22.109406, "latitude": -34.158978 }, "geometry": { "type": "Point", "coordinates": [ 22.109406, -34.158978 ] } },
{ "type": "Feature", "properties": { "station": "Dihlabeng Mall", "longitude": 28.32672, "latitude": -28.242247 }, "geometry": { "type": "Point", "coordinates": [ 28.32672, -28.242247 ] } },
{ "type": "Feature", "properties": { "station": "Engen Heidelberg (WC)", "longitude": 20.963902, "latitude": -34.09612 }, "geometry": { "type": "Point", "coordinates": [ 20.963902, -34.09612 ] } },
{ "type": "Feature", "properties": { "station": "Engen Highveld 1Stop East", "longitude": 28.2535, "latitude": -26.0056 }, "geometry": { "type": "Point", "coordinates": [ 28.2535, -26.0056 ] } },
{ "type": "Feature", "properties": { "station": "Engen Highveld 1Stop West", "longitude": 28.2527, "latitude": -26.0083 }, "geometry": { "type": "Point", "coordinates": [ 28.2527, -26.0083 ] } },
{ "type": "Feature", "properties": { "station": "Engen Langebaan", "longitude": 18.1063, "latitude": -33.0267 }, "geometry": { "type": "Point", "coordinates": [ 18.1063, -33.0267 ] } },
{ "type": "Feature", "properties": { "station": "Engen Mount Currie", "longitude": 29.438423, "latitude": -30.571411 }, "geometry": { "type": "Point", "coordinates": [ 29.438423, -30.571411 ] } },
{ "type": "Feature", "properties": { "station": "Fleurdal Mall", "longitude": 26.190872, "latitude": -29.159105 }, "geometry": { "type": "Point", "coordinates": [ 26.190872, -29.159105 ] } },
{ "type": "Feature", "properties": { "station": "Galleria Mall", "longitude": 30.89683, "latitude": -30.034945 }, "geometry": { "type": "Point", "coordinates": [ 30.89683, -30.034945 ] } },
{ "type": "Feature", "properties": { "station": "JLR Experience Centre - Public DC", "longitude": 28.038443, "latitude": -26.012842 }, "geometry": { "type": "Point", "coordinates": [ 28.038443, -26.012842 ] } },
{ "type": "Feature", "properties": { "station": "Mall Of Africa", "longitude": 28.109262, "latitude": -26.015345 }, "geometry": { "type": "Point", "coordinates": [ 28.109262, -26.015345 ] } },
{ "type": "Feature", "properties": { "station": "Moffet Retail Park", "longitude": 25.5544, "latitude": -33.95622 }, "geometry": { "type": "Point", "coordinates": [ 25.5544, -33.95622 ] } },
{ "type": "Feature", "properties": { "station": "Nelson Mandela Bay Stadium", "longitude": 25.598297, "latitude": -33.938927 }, "geometry": { "type": "Point", "coordinates": [ 25.598297, -33.938927 ] } },
{ "type": "Feature", "properties": { "station": "Newcastle Mall", "longitude": 29.943155, "latitude": -27.777332 }, "geometry": { "type": "Point", "coordinates": [ 29.943155, -27.777332 ] } },
{ "type": "Feature", "properties": { "station": "Peregrine Farm Stall", "longitude": 19.0132, "latitude": -34.1624 }, "geometry": { "type": "Point", "coordinates": [ 19.0132, -34.1624 ] } },
{ "type": "Feature", "properties": { "station": "Sasol Tanda Tau", "longitude": 28.84, "latitude": -27.5517 }, "geometry": { "type": "Point", "coordinates": [ 28.84, -27.5517 ] } },
{ "type": "Feature", "properties": { "station": "Somerset Mall", "longitude": 18.824265, "latitude": -34.081917 }, "geometry": { "type": "Point", "coordinates": [ 18.824265, -34.081917 ] } },
{ "type": "Feature", "properties": { "station": "Sub Sahara Power Distributors", "longitude": 28.029388, "latitude": -26.222666 }, "geometry": { "type": "Point", "coordinates": [ 28.029388, -26.222666 ] } },
{ "type": "Feature", "properties": { "station": "Sun Sibaya Casino", "longitude": 31.10028, "latitude": -29.68225 }, "geometry": { "type": "Point", "coordinates": [ 31.10028, -29.68225 ] } },
{ "type": "Feature", "properties": { "station": "Tavcor Volkswagen Gqeberha", "longitude": 25.554712, "latitude": -33.963722 }, "geometry": { "type": "Point", "coordinates": [ 25.554712, -33.963722 ] } },
{ "type": "Feature", "properties": { "station": "The Avenues Centre", "longitude": 30.299433, "latitude": -29.534494 }, "geometry": { "type": "Point", "coordinates": [ 30.299433, -29.534494 ] } },
{ "type": "Feature", "properties": { "station": "The Club Retail", "longitude": 28.257412, "latitude": -25.77862 }, "geometry": { "type": "Point", "coordinates": [ 28.257412, -25.77862 ] } },
{ "type": "Feature", "properties": { "station": "The Hilton Hotel Sandton", "longitude": 28.060425, "latitude": -26.101706 }, "geometry": { "type": "Point", "coordinates": [ 28.060425, -26.101706 ] } },
{ "type": "Feature", "properties": { "station": "The Hilton Hotel Umhlanga", "longitude": 31.072153, "latitude": -29.728138 }, "geometry": { "type": "Point", "coordinates": [ 31.072153, -29.728138 ] } },
{ "type": "Feature", "properties": { "station": "TotalEnergies Piketberg", "longitude": 18.766, "latitude": -32.9077 }, "geometry": { "type": "Point", "coordinates": [ 18.766, -32.9077 ] } },
{ "type": "Feature", "properties": { "station": "Tsitsikhaya Lodge Restaurant & Spa", "longitude": 23.886679, "latitude": -33.97052 }, "geometry": { "type": "Point", "coordinates": [ 23.886679, -33.97052 ] } },
{ "type": "Feature", "properties": { "station": "Tygervalley Shopping Centre", "longitude": 18.63407, "latitude": -33.874264 }, "geometry": { "type": "Point", "coordinates": [ 18.63407, -33.874264 ] } },
{ "type": "Feature", "properties": { "station": "Virgin Active East London", "longitude": 27.920572, "latitude": -33.014282 }, "geometry": { "type": "Point", "coordinates": [ 27.920572, -33.014282 ] } },
{ "type": "Feature", "properties": { "station": "AC at 84 on Main (Dullstroom)", "longitude": 30.106511, "latitude": -25.41822 }, "geometry": { "type": "Point", "coordinates": [ 30.106511, -25.41822 ] } },
{ "type": "Feature", "properties": { "station": "AC at ANEW Hotel Hilton (Pietermaritzburg)", "longitude": 30.300112, "latitude": -29.544662 }, "geometry": { "type": "Point", "coordinates": [ 30.300112, -29.544662 ] } },
{ "type": "Feature", "properties": { "station": "AC at Auto BMW Ermelo (Ermelo)", "longitude": 29.984971, "latitude": -26.519052 }, "geometry": { "type": "Point", "coordinates": [ 29.984971, -26.519052 ] } },
{ "type": "Feature", "properties": { "station": "AC at AutoTrader (Randburg)", "longitude": 28.003442, "latitude": -26.099075 }, "geometry": { "type": "Point", "coordinates": [ 28.003442, -26.099075 ] } },
{ "type": "Feature", "properties": { "station": "AC at BMW Somerset West (Public)", "longitude": 18.8183, "latitude": -34.080294 }, "geometry": { "type": "Point", "coordinates": [ 18.8183, -34.080294 ] } },
{ "type": "Feature", "properties": { "station": "AC at Bona Bona Game Lodge", "longitude": 26.229365, "latitude": -27.020653 }, "geometry": { "type": "Point", "coordinates": [ 26.229365, -27.020653 ] } },
{ "type": "Feature", "properties": { "station": "AC at Brooklyn Mall (Brooklyn) - AC 1R", "longitude": 28.234969, "latitude": -25.772177 }, "geometry": { "type": "Point", "coordinates": [ 28.234969, -25.772177 ] } },
{ "type": "Feature", "properties": { "station": "AC at Brooklyn Mall (Brooklyn) - AC 2L", "longitude": 28.235002, "latitude": -25.772245 }, "geometry": { "type": "Point", "coordinates": [ 28.235002, -25.772245 ] } },
{ "type": "Feature", "properties": { "station": "AC at Bryanston Country Club (Bryanston)", "longitude": 28.010849, "latitude": -26.06252 }, "geometry": { "type": "Point", "coordinates": [ 28.010849, -26.06252 ] } },
{ "type": "Feature", "properties": { "station": "AC at Central Square Sandton", "longitude": 28.053381, "latitude": -26.096765 }, "geometry": { "type": "Point", "coordinates": [ 28.053381, -26.096765 ] } },
{ "type": "Feature", "properties": { "station": "AC at Champagne Castle Hotel", "longitude": 29.417748, "latitude": -29.048098 }, "geometry": { "type": "Point", "coordinates": [ 29.417748, -29.048098 ] } },
{ "type": "Feature", "properties": { "station": "AC at City Lodge Bloemfontein", "longitude": 26.202858, "latitude": -29.110786 }, "geometry": { "type": "Point", "coordinates": [ 26.202858, -29.110786 ] } },
{ "type": "Feature", "properties": { "station": "AC at City Lodge Lynnwood", "longitude": 28.277947, "latitude": -25.765278 }, "geometry": { "type": "Point", "coordinates": [ 28.277947, -25.765278 ] } },
{ "type": "Feature", "properties": { "station": "AC at Constantia (Constantia Village)", "longitude": 18.444436, "latitude": -34.021951 }, "geometry": { "type": "Point", "coordinates": [ 18.444436, -34.021951 ] } },
{ "type": "Feature", "properties": { "station": "AC at Courtyard Hotel PE", "longitude": 25.655471, "latitude": -33.980516 }, "geometry": { "type": "Point", "coordinates": [ 25.655471, -33.980516 ] } },
{ "type": "Feature", "properties": { "station": "AC at Courtyard Hotel Sandton", "longitude": 28.060241, "latitude": -26.102194 }, "geometry": { "type": "Point", "coordinates": [ 28.060241, -26.102194 ] } },
{ "type": "Feature", "properties": { "station": "AC at Courtyard Hotel Waterfall City", "longitude": 28.104888, "latitude": -26.013385 }, "geometry": { "type": "Point", "coordinates": [ 28.104888, -26.013385 ] } },
{ "type": "Feature", "properties": { "station": "AC at Cullinan Jewel", "longitude": 28.520348, "latitude": -25.672963 }, "geometry": { "type": "Point", "coordinates": [ 28.520348, -25.672963 ] } },
{ "type": "Feature", "properties": { "station": "AC at Delaire Graff Estate (Stellenbosch)", "longitude": 18.922041, "latitude": -33.922133 }, "geometry": { "type": "Point", "coordinates": [ 18.922041, -33.922133 ] } },
{ "type": "Feature", "properties": { "station": "AC at Eden on the Bay", "longitude": 18.458119, "latitude": -33.793391 }, "geometry": { "type": "Point", "coordinates": [ 18.458119, -33.793391 ] } },
{ "type": "Feature", "properties": { "station": "AC at Fancourt - Center", "longitude": 22.407035, "latitude": -33.952856 }, "geometry": { "type": "Point", "coordinates": [ 22.407035, -33.952856 ] } },
{ "type": "Feature", "properties": { "station": "AC at Fancourt - Right", "longitude": 22.407067, "latitude": -33.952731 }, "geometry": { "type": "Point", "coordinates": [ 22.407067, -33.952731 ] } },
{ "type": "Feature", "properties": { "station": "AC at Forever Resort - AC 2 (Gariep)", "longitude": 25.502273, "latitude": -30.597448 }, "geometry": { "type": "Point", "coordinates": [ 25.502273, -30.597448 ] } },
{ "type": "Feature", "properties": { "station": "AC at Franschoek Beer Company", "longitude": 19.075466, "latitude": -33.885903 }, "geometry": { "type": "Point", "coordinates": [ 19.075466, -33.885903 ] } },
{ "type": "Feature", "properties": { "station": "AC at Galleria Mall", "longitude": 30.896805, "latitude": -30.03498 }, "geometry": { "type": "Point", "coordinates": [ 30.896805, -30.03498 ] } },
{ "type": "Feature", "properties": { "station": "AC at Graham Beck Estate (Robertson)", "longitude": 19.800022, "latitude": -33.801248 }, "geometry": { "type": "Point", "coordinates": [ 19.800022, -33.801248 ] } },
{ "type": "Feature", "properties": { "station": "AC at GridCars HQ", "longitude": 27.909278, "latitude": -26.124132 }, "geometry": { "type": "Point", "coordinates": [ 27.909278, -26.124132 ] } },
{ "type": "Feature", "properties": { "station": "AC at Grootbos Lodge - 1", "longitude": 19.411929, "latitude": -34.543243 }, "geometry": { "type": "Point", "coordinates": [ 19.411929, -34.543243 ] } },
{ "type": "Feature", "properties": { "station": "AC at Grootbos Lodge - 2", "longitude": 19.411929, "latitude": -34.543243 }, "geometry": { "type": "Point", "coordinates": [ 19.411929, -34.543243 ] } },
{ "type": "Feature", "properties": { "station": "AC at Hazendal Wine Estate", "longitude": 18.716891, "latitude": -33.899219 }, "geometry": { "type": "Point", "coordinates": [ 18.716891, -33.899219 ] } },
{ "type": "Feature", "properties": { "station": "AC at Highlands Gate", "longitude": 30.208371, "latitude": -25.442244 }, "geometry": { "type": "Point", "coordinates": [ 30.208371, -25.442244 ] } },
{ "type": "Feature", "properties": { "station": "AC at Highwayman's (Pelgrims Rus)", "longitude": 30.752712, "latitude": -24.900916 }, "geometry": { "type": "Point", "coordinates": [ 30.752712, -24.900916 ] } },
{ "type": "Feature", "properties": { "station": "AC at Hyde Park Shopping Centre (Hyde Park)", "longitude": 28.032744, "latitude": -26.125551 }, "geometry": { "type": "Point", "coordinates": [ 28.032744, -26.125551 ] } },
{ "type": "Feature", "properties": { "station": "AC at iStore Sandton", "longitude": 28.048284, "latitude": -26.109984 }, "geometry": { "type": "Point", "coordinates": [ 28.048284, -26.109984 ] } },
{ "type": "Feature", "properties": { "station": "AC at King Shaka Airport (La Mercy)", "longitude": 31.102975, "latitude": -29.619339 }, "geometry": { "type": "Point", "coordinates": [ 31.102975, -29.619339 ] } },
{ "type": "Feature", "properties": { "station": "AC at Kyalami Corner Shopping Centre", "longitude": 28.074669, "latitude": -25.984719 }, "geometry": { "type": "Point", "coordinates": [ 28.074669, -25.984719 ] } },
{ "type": "Feature", "properties": { "station": "AC at L'Agulhas B&B", "longitude": 20.012599, "latitude": -34.825613 }, "geometry": { "type": "Point", "coordinates": [ 20.012599, -34.825613 ] } },
{ "type": "Feature", "properties": { "station": "AC at Montagu Country Hotel (Montagu)", "longitude": 20.121492, "latitude": -33.786585 }, "geometry": { "type": "Point", "coordinates": [ 20.121492, -33.786585 ] } },
{ "type": "Feature", "properties": { "station": "AC at Netcare Waterfall City Hospital", "longitude": 28.101468, "latitude": -26.014434 }, "geometry": { "type": "Point", "coordinates": [ 28.101468, -26.014434 ] } },
{ "type": "Feature", "properties": { "station": "AC at OR Tambo International Airport - AC 1R", "longitude": 28.231604, "latitude": -26.135029 }, "geometry": { "type": "Point", "coordinates": [ 28.231604, -26.135029 ] } },
{ "type": "Feature", "properties": { "station": "AC at OR Tambo International Airport - AC 2L", "longitude": 28.232334, "latitude": -26.132689 }, "geometry": { "type": "Point", "coordinates": [ 28.232334, -26.132689 ] } },
{ "type": "Feature", "properties": { "station": "AC at Palala Boutique Game Lodge & Spa", "longitude": 27.854784, "latitude": -23.122157 }, "geometry": { "type": "Point", "coordinates": [ 27.854784, -23.122157 ] } },
{ "type": "Feature", "properties": { "station": "AC at Pezula Golf Course", "longitude": 23.087631, "latitude": -34.071885 }, "geometry": { "type": "Point", "coordinates": [ 23.087631, -34.071885 ] } },
{ "type": "Feature", "properties": { "station": "AC at Pineslopes - AC 1", "longitude": 28.014766, "latitude": -26.021323 }, "geometry": { "type": "Point", "coordinates": [ 28.014766, -26.021323 ] } },
{ "type": "Feature", "properties": { "station": "AC at Protea Hotel Clarens", "longitude": 28.422255, "latitude": -28.513229 }, "geometry": { "type": "Point", "coordinates": [ 28.422255, -28.513229 ] } },
{ "type": "Feature", "properties": { "station": "AC at Protea Hotel Montrose (Harrismith)", "longitude": 29.28401, "latitude": -28.357128 }, "geometry": { "type": "Point", "coordinates": [ 29.28401, -28.357128 ] } },
{ "type": "Feature", "properties": { "station": "AC at Road Lodge (PMB)", "longitude": 30.408974, "latitude": -29.615899 }, "geometry": { "type": "Point", "coordinates": [ 30.408974, -29.615899 ] } },
{ "type": "Feature", "properties": { "station": "AC at Royal Johannesburg & Kensington (J&K) Golf Club (Johannesburg)", "longitude": 28.10846, "latitude": -26.155541 }, "geometry": { "type": "Point", "coordinates": [ 28.10846, -26.155541 ] } },
{ "type": "Feature", "properties": { "station": "AC at Sandton City - W2", "longitude": 28.05195, "latitude": -26.108252 }, "geometry": { "type": "Point", "coordinates": [ 28.05195, -26.108252 ] } },
{ "type": "Feature", "properties": { "station": "AC at Saxon Hotel", "longitude": 28.035545, "latitude": -26.111912 }, "geometry": { "type": "Point", "coordinates": [ 28.035545, -26.111912 ] } },
{ "type": "Feature", "properties": { "station": "AC at Selborne Golf Estate Hotel & Spa", "longitude": 30.678414, "latitude": -30.375893 }, "geometry": { "type": "Point", "coordinates": [ 30.678414, -30.375893 ] } },
{ "type": "Feature", "properties": { "station": "AC at Shell Hertford Junction (Lanseria)", "longitude": 27.923546, "latitude": -25.97496 }, "geometry": { "type": "Point", "coordinates": [ 27.923546, -25.97496 ] } },
{ "type": "Feature", "properties": { "station": "AC at Signet Terrace Shopping Centre", "longitude": 27.828554, "latitude": -26.315671 }, "geometry": { "type": "Point", "coordinates": [ 27.828554, -26.315671 ] } },
{ "type": "Feature", "properties": { "station": "AC at Silvermist Wine Estate", "longitude": 18.40321, "latitude": -34.015307 }, "geometry": { "type": "Point", "coordinates": [ 18.40321, -34.015307 ] } },
{ "type": "Feature", "properties": { "station": "AC at Spier Wine Farm (Stellenbosch)", "longitude": 18.783689, "latitude": -33.972772 }, "geometry": { "type": "Point", "coordinates": [ 18.783689, -33.972772 ] } },
{ "type": "Feature", "properties": { "station": "AC at The Cellars Hohenort Hotel (Cape Town)", "longitude": 18.434047, "latitude": -34.001185 }, "geometry": { "type": "Point", "coordinates": [ 18.434047, -34.001185 ] } },
{ "type": "Feature", "properties": { "station": "AC at The Country Club Johannesburg - Auckland Park", "longitude": 28.012146, "latitude": -26.182949 }, "geometry": { "type": "Point", "coordinates": [ 28.012146, -26.182949 ] } },
{ "type": "Feature", "properties": { "station": "AC at The Country Club Johannesburg - Woodmead", "longitude": 28.080058, "latitude": -26.050598 }, "geometry": { "type": "Point", "coordinates": [ 28.080058, -26.050598 ] } },
{ "type": "Feature", "properties": { "station": "AC at The Westcliff", "longitude": 28.032595, "latitude": -26.171325 }, "geometry": { "type": "Point", "coordinates": [ 28.032595, -26.171325 ] } },
{ "type": "Feature", "properties": { "station": "AC at Thrupps Illovo Centre 1", "longitude": 28.049705, "latitude": -26.129996 }, "geometry": { "type": "Point", "coordinates": [ 28.049705, -26.129996 ] } },
{ "type": "Feature", "properties": { "station": "AC at Timamoon", "longitude": 30.952391, "latitude": -25.036673 }, "geometry": { "type": "Point", "coordinates": [ 30.952391, -25.036673 ] } },
{ "type": "Feature", "properties": { "station": "AC at Town Lodge Umhlanga", "longitude": 31.066286, "latitude": -29.717237 }, "geometry": { "type": "Point", "coordinates": [ 31.066286, -29.717237 ] } },
{ "type": "Feature", "properties": { "station": "AC at UNIDO 1 (Bellville Civic Centre)", "longitude": 18.63732, "latitude": -33.902265 }, "geometry": { "type": "Point", "coordinates": [ 18.63732, -33.902265 ] } },
{ "type": "Feature", "properties": { "station": "AC at Village Green Shopping Centre (Johannesburg)", "longitude": 28.012102, "latitude": -26.147662 }, "geometry": { "type": "Point", "coordinates": [ 28.012102, -26.147662 ] } },
{ "type": "Feature", "properties": { "station": "AC at Village Mall (Hartbeespoort)", "longitude": 27.887088, "latitude": -25.730731 }, "geometry": { "type": "Point", "coordinates": [ 27.887088, -25.730731 ] } },
{ "type": "Feature", "properties": { "station": "AC at Virgin Active Bryanston", "longitude": 28.023795, "latitude": -26.05744 }, "geometry": { "type": "Point", "coordinates": [ 28.023795, -26.05744 ] } },
{ "type": "Feature", "properties": { "station": "AC at VodaWorld Midrand", "longitude": 28.127435, "latitude": -25.970288 }, "geometry": { "type": "Point", "coordinates": [ 28.127435, -25.970288 ] } },
{ "type": "Feature", "properties": { "station": "AC at Wembley Square", "longitude": 18.422065, "latitude": -33.932598 }, "geometry": { "type": "Point", "coordinates": [ 18.422065, -33.932598 ] } },
{ "type": "Feature", "properties": { "station": "AC at Wild Coast Sun (Sun International)", "longitude": 30.1869, "latitude": -31.085762 }, "geometry": { "type": "Point", "coordinates": [ 30.1869, -31.085762 ] } },
{ "type": "Feature", "properties": { "station": "AC at Wilderness Hotel", "longitude": 22.577249, "latitude": -33.993313 }, "geometry": { "type": "Point", "coordinates": [ 22.577249, -33.993313 ] } },
{ "type": "Feature", "properties": { "station": "AC at Wonderboom Junction", "longitude": 28.189665, "latitude": -25.685605 }, "geometry": { "type": "Point", "coordinates": [ 28.189665, -25.685605 ] } },
{ "type": "Feature", "properties": { "station": "AC at Woodhill Golf Estate", "longitude": 28.315981, "latitude": -25.815165 }, "geometry": { "type": "Point", "coordinates": [ 28.315981, -25.815165 ] } },
{ "type": "Feature", "properties": { "station": "AC at Woodlands Boulevard", "longitude": 28.31128, "latitude": -25.823746 }, "geometry": { "type": "Point", "coordinates": [ 28.31128, -25.823746 ] } },
{ "type": "Feature", "properties": { "station": "AC1 at V&A Waterfront (Entrance 1 Tasha's)", "longitude": 18.421363, "latitude": -33.902043 }, "geometry": { "type": "Point", "coordinates": [ 18.421363, -33.902043 ] } },
{ "type": "Feature", "properties": { "station": "AC2 at V&A Waterfront (Entrance 2 Pick & Pay)", "longitude": 18.421943, "latitude": -33.902077 }, "geometry": { "type": "Point", "coordinates": [ 18.421943, -33.902077 ] } },
{ "type": "Feature", "properties": { "station": "AC3 at V&A Waterfront (Entrance 6 Basement)", "longitude": 18.422276, "latitude": -33.901937 }, "geometry": { "type": "Point", "coordinates": [ 18.422276, -33.901937 ] } },
{ "type": "Feature", "properties": { "station": "BMW Ballito (SMG)", "longitude": 31.197274, "latitude": -29.521377 }, "geometry": { "type": "Point", "coordinates": [ 31.197274, -29.521377 ] } },
{ "type": "Feature", "properties": { "station": "BMW Bloemfontein (Sovereign)", "longitude": 26.168461, "latitude": -29.090013 }, "geometry": { "type": "Point", "coordinates": [ 26.168461, -29.090013 ] } },
{ "type": "Feature", "properties": { "station": "BMW Cape Town City (Auto Atlantic)", "longitude": 18.428942, "latitude": -33.919328 }, "geometry": { "type": "Point", "coordinates": [ 18.428942, -33.919328 ] } },
{ "type": "Feature", "properties": { "station": "BMW Centurion (Centurion)", "longitude": 28.188471, "latitude": -25.860521 }, "geometry": { "type": "Point", "coordinates": [ 28.188471, -25.860521 ] } },
{ "type": "Feature", "properties": { "station": "BMW Daly Potchefstroom - Public AC", "longitude": 27.097768, "latitude": -26.708268 }, "geometry": { "type": "Point", "coordinates": [ 27.097768, -26.708268 ] } },
{ "type": "Feature", "properties": { "station": "BMW Durban (SMG)", "longitude": 31.030481, "latitude": -29.845091 }, "geometry": { "type": "Point", "coordinates": [ 31.030481, -29.845091 ] } },
{ "type": "Feature", "properties": { "station": "BMW Fourways (Cedar Isle)", "longitude": 28.002471, "latitude": -26.020942 }, "geometry": { "type": "Point", "coordinates": [ 28.002471, -26.020942 ] } },
{ "type": "Feature", "properties": { "station": "BMW Joburg South (Auto Glen Motors)", "longitude": 28.058908, "latitude": -26.264307 }, "geometry": { "type": "Point", "coordinates": [ 28.058908, -26.264307 ] } },
{ "type": "Feature", "properties": { "station": "BMW Mbombela (Eastview)", "longitude": 30.965207, "latitude": -25.441431 }, "geometry": { "type": "Point", "coordinates": [ 30.965207, -25.441431 ] } },
{ "type": "Feature", "properties": { "station": "BMW Menlyn (Menlyn Auto)", "longitude": 28.274037, "latitude": -25.788676 }, "geometry": { "type": "Point", "coordinates": [ 28.274037, -25.788676 ] } },
{ "type": "Feature", "properties": { "station": "BMW Paarlberg (Paarlberg)", "longitude": 18.963118, "latitude": -33.740594 }, "geometry": { "type": "Point", "coordinates": [ 18.963118, -33.740594 ] } },
{ "type": "Feature", "properties": { "station": "BMW Pietermaritzburg (Supertech)", "longitude": 30.3744, "latitude": -29.5836 }, "geometry": { "type": "Point", "coordinates": [ 30.3744, -29.5836 ] } },
{ "type": "Feature", "properties": { "station": "BMW Polokwane (Legacy)", "longitude": 29.444067, "latitude": -23.913014 }, "geometry": { "type": "Point", "coordinates": [ 29.444067, -23.913014 ] } },
{ "type": "Feature", "properties": { "station": "BMW Stellenbosch (Donford)", "longitude": 18.842384, "latitude": -33.975688 }, "geometry": { "type": "Point", "coordinates": [ 18.842384, -33.975688 ] } },
{ "type": "Feature", "properties": { "station": "BMW Vereeniging (Sovereign)", "longitude": 27.93384, "latitude": -26.66209 }, "geometry": { "type": "Point", "coordinates": [ 27.93384, -26.66209 ] } },
{ "type": "Feature", "properties": { "station": "JLR Bryanston - Public AC", "longitude": 28.023852, "latitude": -26.082118 }, "geometry": { "type": "Point", "coordinates": [ 28.023852, -26.082118 ] } },
{ "type": "Feature", "properties": { "station": "JLR Centurion - Public AC", "longitude": 28.193372, "latitude": -25.867461 }, "geometry": { "type": "Point", "coordinates": [ 28.193372, -25.867461 ] } },
{ "type": "Feature", "properties": { "station": "JLR Constantiaberg - Public AC", "longitude": 18.4598, "latitude": -34.065061 }, "geometry": { "type": "Point", "coordinates": [ 18.4598, -34.065061 ] } },
{ "type": "Feature", "properties": { "station": "JLR Menlyn - Public AC", "longitude": 28.272345, "latitude": -25.786138 }, "geometry": { "type": "Point", "coordinates": [ 28.272345, -25.786138 ] } },
{ "type": "Feature", "properties": { "station": "JLR N1 City - Public AC", "longitude": 18.555062, "latitude": -33.895283 }, "geometry": { "type": "Point", "coordinates": [ 18.555062, -33.895283 ] } },
{ "type": "Feature", "properties": { "station": "JLR Pietermaritzburg - Public AC", "longitude": 30.376883, "latitude": -29.585472 }, "geometry": { "type": "Point", "coordinates": [ 30.376883, -29.585472 ] } },
{ "type": "Feature", "properties": { "station": "JLR Polokwane - Public AC", "longitude": 29.496522, "latitude": -23.886968 }, "geometry": { "type": "Point", "coordinates": [ 29.496522, -23.886968 ] } },
{ "type": "Feature", "properties": { "station": "JLR Rustenburg - Public AC", "longitude": 27.254728, "latitude": -25.68639 }, "geometry": { "type": "Point", "coordinates": [ 27.254728, -25.68639 ] } },
{ "type": "Feature", "properties": { "station": "JLR Stellenbosch - Public AC", "longitude": 18.855021, "latitude": -33.936626 }, "geometry": { "type": "Point", "coordinates": [ 18.855021, -33.936626 ] } },
{ "type": "Feature", "properties": { "station": "JLR The Glen - Public AC", "longitude": 28.059509, "latitude": -26.264871 }, "geometry": { "type": "Point", "coordinates": [ 28.059509, -26.264871 ] } },
{ "type": "Feature", "properties": { "station": "JLR Waterford - Public AC", "longitude": 27.983566, "latitude": -26.026007 }, "geometry": { "type": "Point", "coordinates": [ 27.983566, -26.026007 ] } },
{ "type": "Feature", "properties": { "station": "JLR West Rand - Public AC", "longitude": 27.916732, "latitude": -26.13555 }, "geometry": { "type": "Point", "coordinates": [ 27.916732, -26.13555 ] } },
{ "type": "Feature", "properties": { "station": "BMW Century City DC", "longitude": 18.505054, "latitude": -33.892828 }, "geometry": { "type": "Point", "coordinates": [ 18.505054, -33.892828 ] } },
{ "type": "Feature", "properties": { "station": "BMW Durban City", "longitude": 31.030481, "latitude": -29.845091 }, "geometry": { "type": "Point", "coordinates": [ 31.030481, -29.845091 ] } },
{ "type": "Feature", "properties": { "station": "DC at 4 Wheels - Mahikeng", "longitude": 25.633003, "latitude": -25.84293 }, "geometry": { "type": "Point", "coordinates": [ 25.633003, -25.84293 ] } },
{ "type": "Feature", "properties": { "station": "DC at Alzu (Petroport N4)", "longitude": 29.793591, "latitude": -25.833778 }, "geometry": { "type": "Point", "coordinates": [ 29.793591, -25.833778 ] } },
{ "type": "Feature", "properties": { "station": "DC at ANEW Hotel Centurion", "longitude": 27.924748, "latitude": -26.1486 }, "geometry": { "type": "Point", "coordinates": [ 27.924748, -26.1486 ] } },
{ "type": "Feature", "properties": { "station": "DC at ANEW Hotel Roodepoort", "longitude": 27.924748, "latitude": -26.1486 }, "geometry": { "type": "Point", "coordinates": [ 27.924748, -26.1486 ] } },
{ "type": "Feature", "properties": { "station": "DC at Ballito Junction (Ballito)", "longitude": 31.202414, "latitude": -29.52363 }, "geometry": { "type": "Point", "coordinates": [ 31.202414, -29.52363 ] } },
{ "type": "Feature", "properties": { "station": "DC at Balwin Properties HQ (Johannesburg)", "longitude": 28.07083, "latitude": -26.12849 }, "geometry": { "type": "Point", "coordinates": [ 28.07083, -26.12849 ] } },
{ "type": "Feature", "properties": { "station": "DC at Baywest Mall (Port Elizabeth)", "longitude": 25.460328, "latitude": -33.952718 }, "geometry": { "type": "Point", "coordinates": [ 25.460328, -33.952718 ] } },
{ "type": "Feature", "properties": { "station": "DC at Bedford Centre (Bedfordview)", "longitude": 28.123012, "latitude": -26.188035 }, "geometry": { "type": "Point", "coordinates": [ 28.123012, -26.188035 ] } },
{ "type": "Feature", "properties": { "station": "DC at BMW Ballito (SMG)", "longitude": 31.197274, "latitude": -29.521377 }, "geometry": { "type": "Point", "coordinates": [ 31.197274, -29.521377 ] } },
{ "type": "Feature", "properties": { "station": "DC at BMW Bedfordview", "longitude": 28.133479, "latitude": -26.17321 }, "geometry": { "type": "Point", "coordinates": [ 28.133479, -26.17321 ] } },
{ "type": "Feature", "properties": { "station": "DC at BMW Bryanston (Bryanston Auto)", "longitude": 28.02387, "latitude": -26.063337 }, "geometry": { "type": "Point", "coordinates": [ 28.02387, -26.063337 ] } },
{ "type": "Feature", "properties": { "station": "DC at BMW Constantia (SMG)", "longitude": 18.466467, "latitude": -33.983311 }, "geometry": { "type": "Point", "coordinates": [ 18.466467, -33.983311 ] } },
{ "type": "Feature", "properties": { "station": "DC at BMW Midrand (Midrand Auto)", "longitude": 28.109079, "latitude": -26.010741 }, "geometry": { "type": "Point", "coordinates": [ 28.109079, -26.010741 ] } },
{ "type": "Feature", "properties": { "station": "DC at BMW Sandton", "longitude": 28.056877, "latitude": -26.092902 }, "geometry": { "type": "Point", "coordinates": [ 28.056877, -26.092902 ] } },
{ "type": "Feature", "properties": { "station": "DC at BMW Secunda", "longitude": 29.173062, "latitude": -26.513325 }, "geometry": { "type": "Point", "coordinates": [ 29.173062, -26.513325 ] } },
{ "type": "Feature", "properties": { "station": "DC at BP Garage Buffeljagsrivier (Swellendam)", "longitude": 20.545462, "latitude": -34.039083 }, "geometry": { "type": "Point", "coordinates": [ 20.545462, -34.039083 ] } },
{ "type": "Feature", "properties": { "station": "DC at Caltex Colesberg", "longitude": 25.152254, "latitude": -30.688736 }, "geometry": { "type": "Point", "coordinates": [ 25.152254, -30.688736 ] } },
{ "type": "Feature", "properties": { "station": "DC at Caltex FreshStop (Caledon)", "longitude": 19.436891, "latitude": -34.225131 }, "geometry": { "type": "Point", "coordinates": [ 19.436891, -34.225131 ] } },
{ "type": "Feature", "properties": { "station": "DC at Caltex Mentors Plaza (Jeffreys Bay)", "longitude": 24.885769, "latitude": -34.016391 }, "geometry": { "type": "Point", "coordinates": [ 24.885769, -34.016391 ] } },
{ "type": "Feature", "properties": { "station": "DC at Caltex Namaqua Garage, Vanrhynsdorp", "longitude": 18.731532, "latitude": -31.607922 }, "geometry": { "type": "Point", "coordinates": [ 18.731532, -31.607922 ] } },
{ "type": "Feature", "properties": { "station": "DC at Caltex Star Stop Karoo (Richmond)", "longitude": 23.948969, "latitude": -31.411472 }, "geometry": { "type": "Point", "coordinates": [ 23.948969, -31.411472 ] } },
{ "type": "Feature", "properties": { "station": "DC at Caltex Star Stop Sulla Via (Ventersburg)", "longitude": 27.142365, "latitude": -28.088234 }, "geometry": { "type": "Point", "coordinates": [ 27.142365, -28.088234 ] } },
{ "type": "Feature", "properties": { "station": "DC at Caltex Sunny Hill (Bloemfontein)", "longitude": 26.273874, "latitude": -28.997863 }, "geometry": { "type": "Point", "coordinates": [ 26.273874, -28.997863 ] } },
{ "type": "Feature", "properties": { "station": "DC at Centurion Lifestyle Centre", "longitude": 28.164472, "latitude": -25.877233 }, "geometry": { "type": "Point", "coordinates": [ 28.164472, -25.877233 ] } },
{ "type": "Feature", "properties": { "station": "DC at CFAO Motors West Rand", "longitude": 27.883565, "latitude": -26.108069 }, "geometry": { "type": "Point", "coordinates": [ 27.883565, -26.108069 ] } },
{ "type": "Feature", "properties": { "station": "DC at Cradlestone Mall (Krugersdorp)", "longitude": 27.835714, "latitude": -26.061495 }, "geometry": { "type": "Point", "coordinates": [ 27.835714, -26.061495 ] } },
{ "type": "Feature", "properties": { "station": "DC at Da'Vinci Hotel & Suites", "longitude": 28.053415, "latitude": -26.107488 }, "geometry": { "type": "Point", "coordinates": [ 28.053415, -26.107488 ] } },
{ "type": "Feature", "properties": { "station": "DC at Durban South (Supertech)", "longitude": 30.961174, "latitude": -29.879883 }, "geometry": { "type": "Point", "coordinates": [ 30.961174, -29.879883 ] } },
{ "type": "Feature", "properties": { "station": "DC at East Rand Mall (Boksburg)", "longitude": 28.240818, "latitude": -26.182687 }, "geometry": { "type": "Point", "coordinates": [ 28.240818, -26.182687 ] } },
{ "type": "Feature", "properties": { "station": "DC at Engen 1-Stop (Laingsburg)", "longitude": 20.861591, "latitude": -33.195509 }, "geometry": { "type": "Point", "coordinates": [ 20.861591, -33.195509 ] } },
{ "type": "Feature", "properties": { "station": "DC at Engen 1-Stop (Mooi River)", "longitude": 30.001592, "latitude": -29.22141 }, "geometry": { "type": "Point", "coordinates": [ 30.001592, -29.22141 ] } },
{ "type": "Feature", "properties": { "station": "DC at Engen 1-Stop (Riversdal)", "longitude": 21.248575, "latitude": -34.092136 }, "geometry": { "type": "Point", "coordinates": [ 21.248575, -34.092136 ] } },
{ "type": "Feature", "properties": { "station": "DC at Engen 1-Stop Bergview (Harrismith)", "longitude": 29.115239, "latitude": -28.255072 }, "geometry": { "type": "Point", "coordinates": [ 29.115239, -28.255072 ] } },
{ "type": "Feature", "properties": { "station": "DC at Engen 1-Stop Vaal West (Villiers)", "longitude": 28.600355, "latitude": -27.007782 }, "geometry": { "type": "Point", "coordinates": [ 28.600355, -27.007782 ] } },
{ "type": "Feature", "properties": { "station": "DC at Engen Expressmark Garden Route (The Craggs)", "longitude": 23.48631, "latitude": -33.946713 }, "geometry": { "type": "Point", "coordinates": [ 23.48631, -33.946713 ] } },
{ "type": "Feature", "properties": { "station": "DC at Engen Swartberg (Beaufort West )", "longitude": 22.582588, "latitude": -32.342977 }, "geometry": { "type": "Point", "coordinates": [ 22.582588, -32.342977 ] } },
{ "type": "Feature", "properties": { "station": "DC at Engen Tugela 1-Stop North (Ladysmith)", "longitude": 29.573685, "latitude": -28.490187 }, "geometry": { "type": "Point", "coordinates": [ 29.573685, -28.490187 ] } },
{ "type": "Feature", "properties": { "station": "DC at Fourways Mall (Johannesburg)", "longitude": 28.005556, "latitude": -26.019409 }, "geometry": { "type": "Point", "coordinates": [ 28.005556, -26.019409 ] } },
{ "type": "Feature", "properties": { "station": "DC at Garden Route Mall (George)", "longitude": 22.504727, "latitude": -33.985181 }, "geometry": { "type": "Point", "coordinates": [ 22.504727, -33.985181 ] } },
{ "type": "Feature", "properties": { "station": "DC at Gardens Shopping Centre (Cape Town)", "longitude": 18.418454, "latitude": -33.934364 }, "geometry": { "type": "Point", "coordinates": [ 18.418454, -33.934364 ] } },
{ "type": "Feature", "properties": { "station": "DC at Gateway Mall (Umhlanga)", "longitude": 31.064787, "latitude": -29.726297 }, "geometry": { "type": "Point", "coordinates": [ 31.064787, -29.726297 ] } },
{ "type": "Feature", "properties": { "station": "DC at Gearings Point Hermanus (ElectroTech)", "longitude": 19.243456, "latitude": -34.42173 }, "geometry": { "type": "Point", "coordinates": [ 19.243456, -34.42173 ] } },
{ "type": "Feature", "properties": { "station": "DC at GridCars Headoffice (Roodepoort)", "longitude": 27.909479, "latitude": -26.124345 }, "geometry": { "type": "Point", "coordinates": [ 27.909479, -26.124345 ] } },
{ "type": "Feature", "properties": { "station": "DC at I'Langa Mall (Nelspruit)", "longitude": 30.957758, "latitude": -25.469159 }, "geometry": { "type": "Point", "coordinates": [ 30.957758, -25.469159 ] } },
{ "type": "Feature", "properties": { "station": "DC at Irene Village Mall (Irene)", "longitude": 28.250694, "latitude": -25.861944 }, "geometry": { "type": "Point", "coordinates": [ 28.250694, -25.861944 ] } },
{ "type": "Feature", "properties": { "station": "DC at Karoo Junction Mall", "longitude": 22.584697, "latitude": -32.357877 }, "geometry": { "type": "Point", "coordinates": [ 22.584697, -32.357877 ] } },
{ "type": "Feature", "properties": { "station": "DC at Knysna Mall (Knysna)", "longitude": 23.045001, "latitude": -34.035702 }, "geometry": { "type": "Point", "coordinates": [ 23.045001, -34.035702 ] } },
{ "type": "Feature", "properties": { "station": "DC at Langeberg Mall (Mossel Bay)", "longitude": 22.103274, "latitude": -34.14724 }, "geometry": { "type": "Point", "coordinates": [ 22.103274, -34.14724 ] } },
{ "type": "Feature", "properties": { "station": "DC at Mall of the North (Polokwane)", "longitude": 29.50942, "latitude": -23.874624 }, "geometry": { "type": "Point", "coordinates": [ 29.50942, -23.874624 ] } },
{ "type": "Feature", "properties": { "station": "DC at Mall of the South (Alberton)", "longitude": 28.05884, "latitude": -26.31455 }, "geometry": { "type": "Point", "coordinates": [ 28.05884, -26.31455 ] } },
{ "type": "Feature", "properties": { "station": "DC at Mayfair Hotel", "longitude": 28.784141, "latitude": -31.596829 }, "geometry": { "type": "Point", "coordinates": [ 28.784141, -31.596829 ] } },
{ "type": "Feature", "properties": { "station": "DC at Mediclinic Kloof", "longitude": 28.263002, "latitude": -25.810817 }, "geometry": { "type": "Point", "coordinates": [ 28.263002, -25.810817 ] } },
{ "type": "Feature", "properties": { "station": "DC at Melrose Arch", "longitude": 28.06892, "latitude": -26.133345 }, "geometry": { "type": "Point", "coordinates": [ 28.06892, -26.133345 ] } },
{ "type": "Feature", "properties": { "station": "DC at Menlyn Maine (Pretoria)", "longitude": 28.280281, "latitude": -25.786423 }, "geometry": { "type": "Point", "coordinates": [ 28.280281, -25.786423 ] } },
{ "type": "Feature", "properties": { "station": "DC at Mercedes Benz Centurion", "longitude": 28.1623, "latitude": -25.87723 }, "geometry": { "type": "Point", "coordinates": [ 28.1623, -25.87723 ] } },
{ "type": "Feature", "properties": { "station": "DC at Mercedes Benz Menlyn", "longitude": 28.282462, "latitude": -25.790806 }, "geometry": { "type": "Point", "coordinates": [ 28.282462, -25.790806 ] } },
{ "type": "Feature", "properties": { "station": "DC at Midlands Mall (Pietermaritzburg)", "longitude": 30.376039, "latitude": -29.580864 }, "geometry": { "type": "Point", "coordinates": [ 30.376039, -29.580864 ] } },
{ "type": "Feature", "properties": { "station": "DC at Mooirivier Mall (Potchefstroom)", "longitude": 27.104617, "latitude": -26.71366 }, "geometry": { "type": "Point", "coordinates": [ 27.104617, -26.71366 ] } },
{ "type": "Feature", "properties": { "station": "DC at Morning Glen Shopping Centre", "longitude": 28.072991, "latitude": -26.067992 }, "geometry": { "type": "Point", "coordinates": [ 28.072991, -26.067992 ] } },
{ "type": "Feature", "properties": { "station": "DC at Mountain Mill Shopping Centre (Worcester)", "longitude": 19.435281, "latitude": -33.630774 }, "geometry": { "type": "Point", "coordinates": [ 19.435281, -33.630774 ] } },
{ "type": "Feature", "properties": { "station": "DC at Quest Garage Noorsveld Farmstall (Jansenville)", "longitude": 24.669003, "latitude": -32.941037 }, "geometry": { "type": "Point", "coordinates": [ 24.669003, -32.941037 ] } },
{ "type": "Feature", "properties": { "station": "DC at Riverside Lodge, Aliwal North", "longitude": 26.706409, "latitude": -30.686442 }, "geometry": { "type": "Point", "coordinates": [ 26.706409, -30.686442 ] } },
{ "type": "Feature", "properties": { "station": "DC at Sandton City (Sandton)", "longitude": 28.052138, "latitude": -26.108374 }, "geometry": { "type": "Point", "coordinates": [ 28.052138, -26.108374 ] } },
{ "type": "Feature", "properties": { "station": "DC at Sasol N17 Plaza", "longitude": 29.092506, "latitude": -26.429531 }, "geometry": { "type": "Point", "coordinates": [ 29.092506, -26.429531 ] } },
{ "type": "Feature", "properties": { "station": "DC at Stellenbosch Square (Stellenbosch)", "longitude": 18.843133, "latitude": -33.977057 }, "geometry": { "type": "Point", "coordinates": [ 18.843133, -33.977057 ] } },
{ "type": "Feature", "properties": { "station": "DC at Stonehill Crossing", "longitude": 28.143207, "latitude": -26.121906 }, "geometry": { "type": "Point", "coordinates": [ 28.143207, -26.121906 ] } },
{ "type": "Feature", "properties": { "station": "DC at The Pantry (Rosebank)", "longitude": 28.036211, "latitude": -26.143767 }, "geometry": { "type": "Point", "coordinates": [ 28.036211, -26.143767 ] } },
{ "type": "Feature", "properties": { "station": "DC at Watercrest Mall (Durban)", "longitude": 30.813742, "latitude": -29.748953 }, "geometry": { "type": "Point", "coordinates": [ 30.813742, -29.748953 ] } },
{ "type": "Feature", "properties": { "station": "DC at Waterfall Mall (Rustenburg)", "longitude": 27.249866, "latitude": -25.707011 }, "geometry": { "type": "Point", "coordinates": [ 27.249866, -25.707011 ] } },
{ "type": "Feature", "properties": { "station": "DC at Weskus Mall (Vredenburg)", "longitude": 17.984377, "latitude": -32.922215 }, "geometry": { "type": "Point", "coordinates": [ 17.984377, -32.922215 ] } },
{ "type": "Feature", "properties": { "station": "DC at Willowbridge Shopping Centre", "longitude": 18.6319, "latitude": -33.869924 }, "geometry": { "type": "Point", "coordinates": [ 18.6319, -33.869924 ] } },
{ "type": "Feature", "properties": { "station": "DC at Windmill Casino (Bloemfontein)", "longitude": 26.180461, "latitude": -29.169684 }, "geometry": { "type": "Point", "coordinates": [ 26.180461, -29.169684 ] } }
]
}
